[
    {
        "azimuth": 350,
        "height": 30.0,
        "id": 50,
        "lat": 36.047222,
        "lon": 103.886111,
        "mtilt": 10.0,
        "name": "城关区_商学院本部_E606362##1",
        "x": 12.244137226999968,
        "y": -4.730134572000612
    },
    {
        "azimuth": 50,
        "height": 28.0,
        "id": 56,
        "lat": 36.065,
        "lon": 103.88,
        "mtilt": 13.0,
        "name": "城关区_雁园路中段_E771455##1",
        "x": 11.694409999999591,
        "y": -2.7643500000006287
    },
    {
        "azimuth": 90,
        "height": 30.0,
        "id": 58,
        "lat": 36.040833,
        "lon": 103.8725,
        "mtilt": 6.0,
        "name": "城关区_东部百货城_E606374##1",
        "x": 11.019732500000204,
        "y": -5.436591858000462
    },
    {
        "azimuth": 0,
        "height": 22.0,
        "id": 65,
        "lat": 36.071944,
        "lon": 103.8625,
        "mtilt": 6.0,
        "name": "城关区_团结路_E606506##1",
        "x": 10.120162499999743,
        "y": -1.9965241440001553
    },
    {
        "azimuth": 100,
        "height": 30.0,
        "id": 68,
        "lat": 36.068611,
        "lon": 103.856388,
        "mtilt": 11.0,
        "name": "城关区_玉原小区_E606498##1",
        "x": 9.570345315999594,
        "y": -2.365067286000699
    },
    {
        "azimuth": 340,
        "height": 18.0,
        "id": 74,
        "lat": 36.045833,
        "lon": 103.866944,
        "mtilt": 17.0,
        "name": "城关区_兰大一院_E606347##1",
        "x": 10.519931408000334,
        "y": -4.883721858000179
    },
    {
        "azimuth": 40,
        "height": 43.0,
        "id": 81,
        "lat": 36.056388,
        "lon": 103.866666,
        "mtilt": 12.0,
        "name": "城关区_雁滩小区3_E606499##1",
        "x": 10.494923361999554,
        "y": -3.716613288000562
    },
    {
        "azimuth": 320,
        "height": 27.0,
        "id": 94,
        "lat": 36.045277,
        "lon": 103.895555,
        "mtilt": 6.0,
        "name": "城关区_段家滩18号_E606404##1",
        "x": 13.093691135000148,
        "y": -4.945201002000523
    },
    {
        "azimuth": 140,
        "height": 27.0,
        "id": 98,
        "lat": 36.041111,
        "lon": 103.885833,
        "mtilt": 6.0,
        "name": "城关区_气象局2_E606388##1",
        "x": 12.219129181000467,
        "y": -5.40585228600029
    },
    {
        "azimuth": 0,
        "height": 36.0,
        "id": 106,
        "lat": 36.048888,
        "lon": 103.860555,
        "mtilt": 10.0,
        "name": "城关区_地震局2_E606371##1",
        "x": 9.945196135000455,
        "y": -4.5459182880005935
    },
    {
        "azimuth": 20,
        "height": 48.0,
        "id": 111,
        "lat": 36.053055,
        "lon": 103.880833,
        "mtilt": 2.0,
        "name": "城关区_张苏滩_E606522##1",
        "x": 11.769344180999598,
        "y": -4.085156430000319
    },
    {
        "azimuth": 90,
        "height": 24.0,
        "id": 112,
        "lat": 36.051111,
        "lon": 103.894722,
        "mtilt": 9.0,
        "name": "城关区_南特数码_E606531##1",
        "x": 13.01875695400014,
        "y": -4.30011228600051
    },
    {
        "azimuth": 20,
        "height": 30.0,
        "id": 128,
        "lat": 36.061944,
        "lon": 103.890277,
        "mtilt": 12.0,
        "name": "城关区_三森板材市场_E606539##1",
        "x": 12.618898088999778,
        "y": -3.102264144000721
    },
    {
        "azimuth": 0,
        "height": 28.0,
        "id": 131,
        "lat": 36.070277,
        "lon": 103.893055,
        "mtilt": 2.0,
        "name": "城关区_教育学院_E606553##1",
        "x": 12.868798635000353,
        "y": -2.18085100200068
    },
    {
        "azimuth": 330,
        "height": 31.0,
        "id": 137,
        "lat": 36.036388,
        "lon": 103.878611,
        "mtilt": 15.0,
        "name": "城关区_吐哈石油小区_E606380##1",
        "x": 11.56945972700058,
        "y": -5.928093288000122
    },
    {
        "azimuth": 120,
        "height": 30.0,
        "id": 191,
        "lat": 36.047222,
        "lon": 103.886111,
        "mtilt": 11.0,
        "name": "城关区_商学院本部_E606362##2",
        "x": 12.244137226999968,
        "y": -4.730134572000612
    },
    {
        "azimuth": 205,
        "height": 28.0,
        "id": 197,
        "lat": 36.065,
        "lon": 103.88,
        "mtilt": 13.0,
        "name": "城关区_雁园路中段_E771455##2",
        "x": 11.694409999999591,
        "y": -2.7643500000006287
    },
    {
        "azimuth": 190,
        "height": 30.0,
        "id": 199,
        "lat": 36.040833,
        "lon": 103.8725,
        "mtilt": 6.0,
        "name": "城关区_东部百货城_E606374##2",
        "x": 11.019732500000204,
        "y": -5.436591858000462
    },
    {
        "azimuth": 120,
        "height": 22.0,
        "id": 206,
        "lat": 36.071944,
        "lon": 103.8625,
        "mtilt": 6.0,
        "name": "城关区_团结路_E606506##2",
        "x": 10.120162499999743,
        "y": -1.9965241440001553
    },
    {
        "azimuth": 200,
        "height": 30.0,
        "id": 209,
        "lat": 36.068611,
        "lon": 103.856388,
        "mtilt": 11.0,
        "name": "城关区_玉原小区_E606498##2",
        "x": 9.570345315999594,
        "y": -2.365067286000699
    },
    {
        "azimuth": 230,
        "height": 18.0,
        "id": 215,
        "lat": 36.045833,
        "lon": 103.866944,
        "mtilt": 17.0,
        "name": "城关区_兰大一院_E606347##2",
        "x": 10.519931408000334,
        "y": -4.883721858000179
    },
    {
        "azimuth": 120,
        "height": 43.0,
        "id": 222,
        "lat": 36.056388,
        "lon": 103.866666,
        "mtilt": 8.0,
        "name": "城关区_雁滩小区3_E606499##2",
        "x": 10.494923361999554,
        "y": -3.716613288000562
    },
    {
        "azimuth": 60,
        "height": 27.0,
        "id": 235,
        "lat": 36.045277,
        "lon": 103.895555,
        "mtilt": 6.0,
        "name": "城关区_段家滩18号_E606404##2",
        "x": 13.093691135000148,
        "y": -4.945201002000523
    },
    {
        "azimuth": 220,
        "height": 27.0,
        "id": 239,
        "lat": 36.041111,
        "lon": 103.885833,
        "mtilt": 6.0,
        "name": "城关区_气象局2_E606388##2",
        "x": 12.219129181000467,
        "y": -5.40585228600029
    },
    {
        "azimuth": 120,
        "height": 36.0,
        "id": 247,
        "lat": 36.048888,
        "lon": 103.860555,
        "mtilt": 10.0,
        "name": "城关区_地震局2_E606371##2",
        "x": 9.945196135000455,
        "y": -4.5459182880005935
    },
    {
        "azimuth": 130,
        "height": 48.0,
        "id": 252,
        "lat": 36.053055,
        "lon": 103.880833,
        "mtilt": 2.0,
        "name": "城关区_张苏滩_E606522##2",
        "x": 11.769344180999598,
        "y": -4.085156430000319
    },
    {
        "azimuth": 210,
        "height": 24.0,
        "id": 253,
        "lat": 36.051111,
        "lon": 103.894722,
        "mtilt": 9.0,
        "name": "城关区_南特数码_E606531##2",
        "x": 13.01875695400014,
        "y": -4.30011228600051
    },
    {
        "azimuth": 90,
        "height": 30.0,
        "id": 269,
        "lat": 36.061944,
        "lon": 103.890277,
        "mtilt": 12.0,
        "name": "城关区_三森板材市场_E606539##2",
        "x": 12.618898088999778,
        "y": -3.102264144000721
    },
    {
        "azimuth": 140,
        "height": 28.0,
        "id": 272,
        "lat": 36.070277,
        "lon": 103.893055,
        "mtilt": 9.0,
        "name": "城关区_教育学院_E606553##2",
        "x": 12.868798635000353,
        "y": -2.18085100200068
    },
    {
        "azimuth": 110,
        "height": 31.0,
        "id": 278,
        "lat": 36.036388,
        "lon": 103.878611,
        "mtilt": 15.0,
        "name": "城关区_吐哈石油小区_E606380##2",
        "x": 11.56945972700058,
        "y": -5.928093288000122
    },
    {
        "azimuth": 230,
        "height": 30.0,
        "id": 329,
        "lat": 36.047222,
        "lon": 103.886111,
        "mtilt": 11.0,
        "name": "城关区_商学院本部_E606362##3",
        "x": 12.244137226999968,
        "y": -4.730134572000612
    },
    {
        "azimuth": 320,
        "height": 28.0,
        "id": 335,
        "lat": 36.065,
        "lon": 103.88,
        "mtilt": 10.0,
        "name": "城关区_雁园路中段_E771455##3",
        "x": 11.694409999999591,
        "y": -2.7643500000006287
    },
    {
        "azimuth": 280,
        "height": 30.0,
        "id": 337,
        "lat": 36.040833,
        "lon": 103.8725,
        "mtilt": 5.0,
        "name": "城关区_东部百货城_E606374##3",
        "x": 11.019732500000204,
        "y": -5.436591858000462
    },
    {
        "azimuth": 240,
        "height": 22.0,
        "id": 343,
        "lat": 36.071944,
        "lon": 103.8625,
        "mtilt": 6.0,
        "name": "城关区_团结路_E606506##3",
        "x": 10.120162499999743,
        "y": -1.9965241440001553
    },
    {
        "azimuth": 300,
        "height": 30.0,
        "id": 346,
        "lat": 36.068611,
        "lon": 103.856388,
        "mtilt": 11.0,
        "name": "城关区_玉原小区_E606498##3",
        "x": 9.570345315999594,
        "y": -2.365067286000699
    },
    {
        "azimuth": 340,
        "height": 27.0,
        "id": 445,
        "lat": 36.052222,
        "lon": 103.872777,
        "mtilt": 8.0,
        "name": "城关区_安居小区2_E606507##1",
        "x": 11.044650588999932,
        "y": -4.177264572000329
    },
    {
        "azimuth": 260,
        "height": 40.0,
        "id": 446,
        "lat": 36.058333,
        "lon": 103.855555,
        "mtilt": 12.0,
        "name": "城关区_兰州军区联勤部东门_E606279##1",
        "x": 9.495411134999586,
        "y": -3.501546858000651
    },
    {
        "azimuth": 300,
        "height": 14.0,
        "id": 449,
        "lat": 36.069722,
        "lon": 103.886388,
        "mtilt": 6.0,
        "name": "城关区_北面滩新村_E606549##1",
        "x": 12.269055315999696,
        "y": -2.2422195720005176
    },
    {
        "azimuth": 280,
        "height": 18.0,
        "id": 352,
        "lat": 36.045833,
        "lon": 103.866944,
        "mtilt": 17.0,
        "name": "城关区_兰大一院_E606347##3",
        "x": 10.519931408000334,
        "y": -4.883721858000179
    },
    {
        "azimuth": 235,
        "height": 43.0,
        "id": 359,
        "lat": 36.056388,
        "lon": 103.866666,
        "mtilt": 8.0,
        "name": "城关区_雁滩小区3_E606499##3",
        "x": 10.494923361999554,
        "y": -3.716613288000562
    },
    {
        "azimuth": 220,
        "height": 27.0,
        "id": 371,
        "lat": 36.045277,
        "lon": 103.895555,
        "mtilt": 6.0,
        "name": "城关区_段家滩18号_E606404##3",
        "x": 13.093691135000148,
        "y": -4.945201002000523
    },
    {
        "azimuth": 240,
        "height": 36.0,
        "id": 382,
        "lat": 36.048888,
        "lon": 103.860555,
        "mtilt": 10.0,
        "name": "城关区_地震局2_E606371##3",
        "x": 9.945196135000455,
        "y": -4.5459182880005935
    },
    {
        "azimuth": 260,
        "height": 48.0,
        "id": 386,
        "lat": 36.053055,
        "lon": 103.880833,
        "mtilt": 2.0,
        "name": "城关区_张苏滩_E606522##3",
        "x": 11.769344180999598,
        "y": -4.085156430000319
    },
    {
        "azimuth": 330,
        "height": 24.0,
        "id": 387,
        "lat": 36.051111,
        "lon": 103.894722,
        "mtilt": 9.0,
        "name": "城关区_南特数码_E606531##3",
        "x": 13.01875695400014,
        "y": -4.30011228600051
    },
    {
        "azimuth": 260,
        "height": 30.0,
        "id": 401,
        "lat": 36.061944,
        "lon": 103.890277,
        "mtilt": 12.0,
        "name": "城关区_三森板材市场_E606539##3",
        "x": 12.618898088999778,
        "y": -3.102264144000721
    },
    {
        "azimuth": 220,
        "height": 28.0,
        "id": 404,
        "lat": 36.070277,
        "lon": 103.893055,
        "mtilt": 8.0,
        "name": "城关区_教育学院_E606553##3",
        "x": 12.868798635000353,
        "y": -2.18085100200068
    },
    {
        "azimuth": 220,
        "height": 31.0,
        "id": 410,
        "lat": 36.036388,
        "lon": 103.878611,
        "mtilt": 12.0,
        "name": "城关区_吐哈石油小区_E606380##3",
        "x": 11.56945972700058,
        "y": -5.928093288000122
    },
    {
        "azimuth": 350,
        "height": 30.0,
        "id": 416,
        "lat": 36.047222,
        "lon": 103.886111,
        "mtilt": 10.0,
        "name": "城关区_商学院本部_E606362##4",
        "x": 12.244137226999968,
        "y": -4.730134572000612
    },
    {
        "azimuth": 300,
        "height": 35.0,
        "id": 420,
        "lat": 36.070277,
        "lon": 103.893055,
        "mtilt": 12.0,
        "name": "城关区_教育学院_E606553##4",
        "x": 12.868798635000353,
        "y": -2.18085100200068
    },
    {
        "azimuth": 340,
        "height": 30.0,
        "id": 434,
        "lat": 36.0525,
        "lon": 103.854166,
        "mtilt": 13.0,
        "name": "城关区_兰州饭店_E606307##1",
        "x": 9.370460862000577,
        "y": -4.146525000000157
    },
    {
        "azimuth": 10,
        "height": 40.0,
        "id": 503,
        "lat": 36.058333,
        "lon": 103.855555,
        "mtilt": 8.0,
        "name": "城关区_兰州军区联勤部东门_E606279##3",
        "x": 9.495411134999586,
        "y": -3.501546858000651
    },
    {
        "azimuth": 190,
        "height": 14.0,
        "id": 506,
        "lat": 36.069722,
        "lon": 103.886388,
        "mtilt": 6.0,
        "name": "城关区_北面滩新村_E606549##3",
        "x": 12.269055315999696,
        "y": -2.2422195720005176
    },
    {
        "azimuth": 0,
        "height": 27.0,
        "id": 535,
        "lat": 36.041111,
        "lon": 103.885833,
        "mtilt": 6.0,
        "name": "城关区_气象局2_E606388##3",
        "x": 12.219129181000467,
        "y": -5.40585228600029
    },
    {
        "azimuth": 30,
        "height": 15.0,
        "id": 546,
        "lat": 36.064722,
        "lon": 103.872222,
        "mtilt": 6.0,
        "name": "城关区_小雁滩_E776196##1",
        "x": 10.994724453999424,
        "y": -2.795089572000015
    },
    {
        "azimuth": 20,
        "height": 25.0,
        "id": 556,
        "lat": 36.046388,
        "lon": 103.876944,
        "mtilt": 13.0,
        "name": "城关区_兰资环东校区_E771451##1",
        "x": 11.419501407999515,
        "y": -4.8223532880003415
    },
    {
        "azimuth": 70,
        "height": 33.0,
        "id": 562,
        "lat": 36.058888,
        "lon": 103.881388,
        "mtilt": 7.0,
        "name": "城关区_天庆嘉园_E606524##1",
        "x": 11.819270316000104,
        "y": -3.440178288000028
    },
    {
        "azimuth": 150,
        "height": 27.0,
        "id": 566,
        "lat": 36.056666,
        "lon": 103.892777,
        "mtilt": 8.0,
        "name": "城关区_高新技术创业园_E606533##1",
        "x": 12.843790588999573,
        "y": -3.68587371600039
    },
    {
        "azimuth": 100,
        "height": 30.0,
        "id": 464,
        "lat": 36.0525,
        "lon": 103.854166,
        "mtilt": 13.0,
        "name": "城关区_兰州饭店_E606307##2",
        "x": 9.370460862000577,
        "y": -4.146525000000157
    },
    {
        "azimuth": 90,
        "height": 27.0,
        "id": 474,
        "lat": 36.052222,
        "lon": 103.872777,
        "mtilt": 9.0,
        "name": "城关区_安居小区2_E606507##2",
        "x": 11.044650588999932,
        "y": -4.177264572000329
    },
    {
        "azimuth": 110,
        "height": 40.0,
        "id": 475,
        "lat": 36.058333,
        "lon": 103.855555,
        "mtilt": 8.0,
        "name": "城关区_兰州军区联勤部东门_E606279##2",
        "x": 9.495411134999586,
        "y": -3.501546858000651
    },
    {
        "azimuth": 100,
        "height": 14.0,
        "id": 478,
        "lat": 36.069722,
        "lon": 103.886388,
        "mtilt": 6.0,
        "name": "城关区_北面滩新村_E606549##2",
        "x": 12.269055315999696,
        "y": -2.2422195720005176
    },
    {
        "azimuth": 240,
        "height": 30.0,
        "id": 492,
        "lat": 36.0525,
        "lon": 103.854166,
        "mtilt": 12.0,
        "name": "城关区_兰州饭店_E606307##3",
        "x": 9.370460862000577,
        "y": -4.146525000000157
    },
    {
        "azimuth": 250,
        "height": 27.0,
        "id": 502,
        "lat": 36.052222,
        "lon": 103.872777,
        "mtilt": 8.0,
        "name": "城关区_安居小区2_E606507##3",
        "x": 11.044650588999932,
        "y": -4.177264572000329
    },
    {
        "azimuth": 150,
        "height": 15.0,
        "id": 577,
        "lat": 36.064722,
        "lon": 103.872222,
        "mtilt": 6.0,
        "name": "城关区_小雁滩_E776196##2",
        "x": 10.994724453999424,
        "y": -2.795089572000015
    },
    {
        "azimuth": 150,
        "height": 25.0,
        "id": 587,
        "lat": 36.046388,
        "lon": 103.876944,
        "mtilt": 13.0,
        "name": "城关区_兰资环东校区_E771451##2",
        "x": 11.419501407999515,
        "y": -4.8223532880003415
    },
    {
        "azimuth": 160,
        "height": 33.0,
        "id": 593,
        "lat": 36.058888,
        "lon": 103.881388,
        "mtilt": 7.0,
        "name": "城关区_天庆嘉园_E606524##2",
        "x": 11.819270316000104,
        "y": -3.440178288000028
    },
    {
        "azimuth": 190,
        "height": 27.0,
        "id": 597,
        "lat": 36.056666,
        "lon": 103.892777,
        "mtilt": 8.0,
        "name": "城关区_高新技术创业园_E606533##2",
        "x": 12.843790588999573,
        "y": -3.68587371600039
    },
    {
        "azimuth": 240,
        "height": 15.0,
        "id": 605,
        "lat": 36.064722,
        "lon": 103.872222,
        "mtilt": 6.0,
        "name": "城关区_小雁滩_E776196##3",
        "x": 10.994724453999424,
        "y": -2.795089572000015
    },
    {
        "azimuth": 320,
        "height": 25.0,
        "id": 615,
        "lat": 36.046388,
        "lon": 103.876944,
        "mtilt": 9.0,
        "name": "城关区_兰资环东校区_E771451##3",
        "x": 11.419501407999515,
        "y": -4.8223532880003415
    },
    {
        "azimuth": 190,
        "height": 33.0,
        "id": 621,
        "lat": 36.058888,
        "lon": 103.881388,
        "mtilt": 5.0,
        "name": "城关区_天庆嘉园_E606524##3",
        "x": 11.819270316000104,
        "y": -3.440178288000028
    },
    {
        "azimuth": 290,
        "height": 27.0,
        "id": 625,
        "lat": 36.056666,
        "lon": 103.892777,
        "mtilt": 8.0,
        "name": "城关区_高新技术创业园_E606533##3",
        "x": 12.843790588999573,
        "y": -3.68587371600039
    }
]